Origin Time (GMT),Latitude,Longitude,Depth (km),Magnitude (ML),Location
2007-06-25 04:13:40,40.8600,23.9100,24,4.0,38.0 km SSW of Drama
1985-11-09 23:30:45,41.1100,24.0500,23,5.1,9.0 km WSW of Drama
1979-04-19 15:24:22,41.4000,23.7000,10,4.0,37.2 km NNE of Serres
1972-12-13 02:58:50,41.5000,24.0000,10,4.3,40.1 km NNW of Drama
1972-07-18 13:45:48,41.4000,23.9000,10,4.1,33.9 km NW of Drama
1970-04-16 23:11:44,40.8000,23.7000,10,4.0,34.2 km SSE of Serres